{"status": "success", "content": {"count": 223, "results": [{"id": 123208, "city": "Fort Worth", "latitude": 32.895357, "longitude": -97.448674, "name": "The Landing", "state": "TX", "county": "Tarrant", "is_village": 0}, {"id": 123528, "city": "Fort Worth", "latitude": 32.888037, "longitude": -97.451501, "name": "Bal Harbour", "state": "TX", "county": "Tarrant", "is_village": 0}, {"id": 135751, "city": "Fort Worth", "latitude": 32.697791, "longitude": -97.25873, "name": "Village Creek", "state": "TX", "county": "Tarrant", "is_village": 0}, {"id": 139103, "city": "Fort Worth", "latitude": 32.861146, "longitude": -97.413079, "name": "Lake Crest", "state": "TX", "county": "Tarrant", "is_village": 0}, {"id": 139694, "city": "Fort Worth", "latitude": 32.854529, "longitude": -97.324868, "name": "Northbrook", "state": "TX", "county": "Tarrant", "is_village": 0}, {"id": 161895, "city": "Fort Worth", "latitude": 32.641933, "longitude": -97.287664, "name": "Quail Run", "state": "TX", "county": "Tarrant", "is_village": 0}, {"id": 165841, "city": "Fort Worth", "latitude": 32.763611, "longitude": -97.517178, "name": "Silver Ridge", "state": "TX", "county": "Tarrant", "is_village": 0}, {"id": 172374, "city": "Fort Worth", "latitude": 32.767685, "longitude": -97.374901, "name": "Crestwood", "state": "TX", "county": "Tarrant", "is_village": 0}, {"id": 175145, "city": "Fort Worth", "latitude": 32.921251, "longitude": -97.303073, "name": "Sunset Hills", "state": "TX", "county": "Tarrant", "is_village": 0}, {"id": 183169, "city": "Fort Worth", "latitude": 32.7836, "longitude": -97.35825, "name": "North Side", "state": "TX", "county": "Tarrant", "is_village": 0}, {"id": 199068, "city": "Fort Worth", "latitude": 32.771295, "longitude": -97.22776, "name": "Woodhaven", "state": "TX", "county": "Tarrant", "is_village": 0}, {"id": 199281, "city": "Fort Worth", "latitude": 32.740245, "longitude": -97.386999, "name": "Arlington Heights", "state": "TX", "county": "Tarrant", "is_village": 0}, {"id": 201125, "city": "Fort Worth", "latitude": 32.623038, "longitude": -97.282932, "name": "Hamlet", "state": "TX", "county": "Tarrant", "is_village": 0}, {"id": 207722, "city": "Fort Worth", "latitude": 32.631165, "longitude": -97.343182, "name": "Willow Creek", "state": "TX", "county": "Tarrant", "is_village": 0}, {"id": 215825, "city": "Fort Worth", "latitude": 32.67628, "longitude": -97.365496, "name": "South Hills", "state": "TX", "county": "Tarrant", "is_village": 0}, {"id": 222554, "city": "Fort Worth", "latitude": 32.879233, "longitude": -97.281267, "name": "Park Place", "state": "TX", "county": "Tarrant", "is_village": 0}, {"id": 227740, "city": "Fort Worth", "latitude": 32.840537, "longitude": -97.469116, "name": "Lakeland", "state": "TX", "county": "Tarrant", "is_village": 0}, {"id": 230853, "city": "Fort Worth", "latitude": 32.726353, "longitude": -97.378962, "name": "Alamo Heights", "state": "TX", "county": "Tarrant", "is_village": 0}, {"id": 232889, "city": "Fort Worth", "latitude": 32.707075, "longitude": -97.27091, "name": "Eastland", "state": "TX", "county": "Tarrant", "is_village": 0}, {"id": 233172, "city": "Fort Worth", "latitude": 32.72435, "longitude": -97.337655, "name": "Fairmount", "state": "TX", "county": "Tarrant", "is_village": 0}, {"id": 233495, "city": "Fort Worth", "latitude": 32.597341, "longitude": -97.302835, "name": "Garden Acres", "state": "TX", "county": "Tarrant", "is_village": 0}, {"id": 233841, "city": "Fort Worth", "latitude": 32.73693, "longitude": -97.208074, "name": "Handley", "state": "TX", "county": "Tarrant", "is_village": 0}, {"id": 235015, "city": "Fort Worth", "latitude": 32.755126, "longitude": -97.358009, "name": "Linwood", "state": "TX", "county": "Tarrant", "is_village": 0}, {"id": 236138, "city": "Fort Worth", "latitude": 32.78499, "longitude": -97.314584, "name": "Oakhurst", "state": "TX", "county": "Tarrant", "is_village": 0}, {"id": 238188, "city": "Fort Worth", "latitude": 32.704956, "longitude": -97.381359, "name": "Tanglewood", "state": "TX", "county": "Tarrant", "is_village": 0}, {"id": 238895, "city": "Fort Worth", "latitude": 32.724334, "longitude": -97.499476, "name": "Westland", "state": "TX", "county": "Tarrant", "is_village": 0}, {"id": 248397, "city": "Fort Worth", "latitude": 32.753473, "longitude": -97.497402, "name": "Westpoint", "state": "TX", "county": "Tarrant", "is_village": 0}, {"id": 249106, "city": "Fort Worth", "latitude": 32.766207, "longitude": -97.382342, "name": "Brookside", "state": "TX", "county": "Tarrant", "is_village": 0}, {"id": 249173, "city": "Fort Worth", "latitude": 32.583084, "longitude": -97.330462, "name": "Coventry", "state": "TX", "county": "Tarrant", "is_village": 0}, {"id": 249275, "city": "Fort Worth", "latitude": 32.70085, "longitude": -97.253881, "name": "Fairhaven", "state": "TX", "county": "Tarrant", "is_village": 0}, {"id": 252182, "city": "Fort Worth", "latitude": 32.71388, "longitude": -97.358535, "name": "University Place", "state": "TX", "county": "Tarrant", "is_village": 0}, {"id": 252709, "city": "Fort Worth", "latitude": 32.751781, "longitude": -97.31451, "name": "Butler", "state": "TX", "county": "Tarrant", "is_village": 0}, {"id": 253799, "city": "Fort Worth", "latitude": 32.755784, "longitude": -97.371419, "name": "Monticello", "state": "TX", "county": "Tarrant", "is_village": 0}, {"id": 256252, "city": "Fort Worth", "latitude": 32.759882, "longitude": -97.199836, "name": "Harmony", "state": "TX", "county": "Tarrant", "is_village": 0}, {"id": 256834, "city": "Fort Worth", "latitude": 32.712511, "longitude": -97.522188, "name": "Lost Creek", "state": "TX", "county": "Tarrant", "is_village": 0}, {"id": 256999, "city": "Fort Worth", "latitude": 32.628812, "longitude": -97.363415, "name": "Meadow Creek", "state": "TX", "county": "Tarrant", "is_village": 0}, {"id": 270035, "city": "Fort Worth", "latitude": 32.712086, "longitude": -97.312344, "name": "Morningside", "state": "TX", "county": "Tarrant", "is_village": 0}, {"id": 270099, "city": "Fort Worth", "latitude": 32.722061, "longitude": -97.404045, "name": "Como", "state": "TX", "county": "Tarrant", "is_village": 0}, {"id": 270657, "city": "Fort Worth", "latitude": 32.664346, "longitude": -97.30383, "name": "Highland Hills", "state": "TX", "county": "Tarrant", "is_village": 0}, {"id": 271095, "city": "Fort Worth", "latitude": 32.772717, "longitude": -97.322279, "name": "Greenway", "state": "TX", "county": "Tarrant", "is_village": 0}, {"id": 271631, "city": "Fort Worth", "latitude": 32.691911, "longitude": -97.36726, "name": "Westcliff", "state": "TX", "county": "Tarrant", "is_village": 0}, {"id": 272010, "city": "Fort Worth", "latitude": 32.659185, "longitude": -97.385791, "name": "Wedgwood", "state": "TX", "county": "Tarrant", "is_village": 0}, {"id": 272215, "city": "Fort Worth", "latitude": 32.880432, "longitude": -97.264505, "name": "Parkwood Hills", "state": "TX", "county": "Tarrant", "is_village": 0}, {"id": 274966, "city": "Fort Worth", "latitude": 32.718804, "longitude": -97.357923, "name": "Park Hill", "state": "TX", "county": "Tarrant", "is_village": 0}, {"id": 275252, "city": "Fort Worth", "latitude": 32.69162, "longitude": -97.342364, "name": "Rosemont", "state": "TX", "county": "Tarrant", "is_village": 0}, {"id": 275895, "city": "Fort Worth", "latitude": 32.650007, "longitude": -97.430957, "name": "Vista Ridge", "state": "TX", "county": "Tarrant", "is_village": 0}, {"id": 411938, "city": "Fort Worth", "latitude": 32.809268, "longitude": -97.145274, "name": "Lakeview", "state": "TX", "county": "Tarrant", "is_village": 0}, {"id": 412396, "city": "Fort Worth", "latitude": 32.620337, "longitude": -97.366835, "name": "Southgate", "state": "TX", "county": "Tarrant", "is_village": 0}, {"id": 413210, "city": "Fort Worth", "latitude": 32.875767, "longitude": -97.434085, "name": "Highlands", "state": "TX", "county": "Tarrant", "is_village": 0}, {"id": 415565, "city": "Fort Worth", "latitude": 32.882984, "longitude": -97.440739, "name": "Lake Country", "state": "TX", "county": "Tarrant", "is_village": 0}, {"id": 418206, "city": "Fort Worth", "latitude": 32.844279, "longitude": -97.378325, "name": "Remington Point", "state": "TX", "county": "Tarrant", "is_village": 0}, {"id": 418207, "city": "Fort Worth", "latitude": 32.855728, "longitude": -97.408091, "name": "Marine Creek Hills", "state": "TX", "county": "Tarrant", "is_village": 0}, {"id": 420209, "city": "Fort Worth", "latitude": 32.928731, "longitude": -97.365865, "name": "Dorado Ranch", "state": "TX", "county": "Tarrant", "is_village": 0}, {"id": 420215, "city": "Fort Worth", "latitude": 32.866861, "longitude": -97.309811, "name": "Fossil Park", "state": "TX", "county": "Tarrant", "is_village": 0}, {"id": 420245, "city": "Fort Worth", "latitude": 32.967301, "longitude": -97.262085, "name": "Rolling Meadows", "state": "TX", "county": "Tarrant", "is_village": 0}, {"id": 420247, "city": "Fort Worth", "latitude": 32.867567, "longitude": -97.319591, "name": "Santa Fe Enclave", "state": "TX", "county": "Tarrant", "is_village": 0}, {"id": 420250, "city": "Fort Worth", "latitude": 32.989446, "longitude": -97.386691, "name": "Sendera Ranch", "state": "TX", "county": "Tarrant", "is_village": 0}, {"id": 420258, "city": "Fort Worth", "latitude": 32.839113, "longitude": -97.384965, "name": "Terrace Landing", "state": "TX", "county": "Tarrant", "is_village": 0}, {"id": 421056, "city": "Fort Worth", "latitude": 32.92329, "longitude": -97.26933, "name": "Kingsridge", "state": "TX", "county": "Tarrant", "is_village": 0}, {"id": 421482, "city": "Fort Worth", "latitude": 32.767478, "longitude": -97.205576, "name": "Emory Place", "state": "TX", "county": "Tarrant", "is_village": 0}, {"id": 421863, "city": "Fort Worth", "latitude": 32.89772, "longitude": -97.295938, "name": "Arcadia Park", "state": "TX", "county": "Tarrant", "is_village": 0}, {"id": 422749, "city": "Fort Worth", "latitude": 32.857701, "longitude": -97.32946, "name": "Alexandra Meadows", "state": "TX", "county": "Tarrant", "is_village": 0}, {"id": 422750, "city": "Fort Worth", "latitude": 32.646058, "longitude": -97.282128, "name": "Altemesa East", "state": "TX", "county": "Tarrant", "is_village": 0}, {"id": 422751, "city": "Fort Worth", "latitude": 32.871083, "longitude": -97.263443, "name": "Basswood Park", "state": "TX", "county": "Tarrant", "is_village": 0}, {"id": 422752, "city": "Fort Worth", "latitude": 32.876423, "longitude": -97.322978, "name": "Basswood Village", "state": "TX", "county": "Tarrant", "is_village": 0}, {"id": 422753, "city": "Fort Worth", "latitude": 33.021994, "longitude": -97.296543, "name": "Beechwood Creek", "state": "TX", "county": "Tarrant", "is_village": 0}, {"id": 422754, "city": "Fort Worth", "latitude": 32.672381, "longitude": -97.430474, "name": "Bellaire Park North", "state": "TX", "county": "Tarrant", "is_village": 0}, {"id": 422755, "city": "Fort Worth", "latitude": 32.770531, "longitude": -97.161266, "name": "Bently Village", "state": "TX", "county": "Tarrant", "is_village": 0}, {"id": 422756, "city": "Fort Worth", "latitude": 32.721106, "longitude": -97.349569, "name": "Berkeley Place", "state": "TX", "county": "Tarrant", "is_village": 0}, {"id": 422757, "city": "Fort Worth", "latitude": 32.700795, "longitude": -97.363038, "name": "Bluebonnet Hills", "state": "TX", "county": "Tarrant", "is_village": 0}, {"id": 422758, "city": "Fort Worth", "latitude": 32.702588, "longitude": -97.357454, "name": "Bluebonnet Place", "state": "TX", "county": "Tarrant", "is_village": 0}, {"id": 422759, "city": "Fort Worth", "latitude": 32.702975, "longitude": -97.446537, "name": "Bomber Heights", "state": "TX", "county": "Tarrant", "is_village": 0}, {"id": 422760, "city": "Fort Worth", "latitude": 32.802861, "longitude": -97.299542, "name": "Bonnie Brae", "state": "TX", "county": "Tarrant", "is_village": 0}, {"id": 422761, "city": "Fort Worth", "latitude": 32.695035, "longitude": -97.317171, "name": "Brentmoor", "state": "TX", "county": "Tarrant", "is_village": 0}, {"id": 422762, "city": "Fort Worth", "latitude": 32.75301, "longitude": -97.220084, "name": "Brentwood-Oak Hills", "state": "TX", "county": "Tarrant", "is_village": 0}, {"id": 422763, "city": "Fort Worth", "latitude": 32.647196, "longitude": -97.430391, "name": "Briercliff", "state": "TX", "county": "Tarrant", "is_village": 0}, {"id": 422764, "city": "Fort Worth", "latitude": 32.876645, "longitude": -97.305547, "name": "Brittany Place", "state": "TX", "county": "Tarrant", "is_village": 0}, {"id": 422765, "city": "Fort Worth", "latitude": 32.719555, "longitude": -97.285079, "name": "Burchill", "state": "TX", "county": "Tarrant", "is_village": 0}, {"id": 422766, "city": "Fort Worth", "latitude": 32.749537, "longitude": -97.406755, "name": "Burton Hill Trinity Trails", "state": "TX", "county": "Tarrant", "is_village": 0}, {"id": 422767, "city": "Fort Worth", "latitude": 32.703819, "longitude": -97.351104, "name": "Byers McCart", "state": "TX", "county": "Tarrant", "is_village": 0}, {"id": 422768, "city": "Fort Worth", "latitude": 32.640935, "longitude": -97.386887, "name": "Candleridge", "state": "TX", "county": "Tarrant", "is_village": 0}, {"id": 422769, "city": "Fort Worth", "latitude": 32.636285, "longitude": -97.395688, "name": "Candle Ridge West", "state": "TX", "county": "Tarrant", "is_village": 0}, {"id": 422770, "city": "Fort Worth", "latitude": 32.692178, "longitude": -97.313003, "name": "Carter Park", "state": "TX", "county": "Tarrant", "is_village": 0}, {"id": 422771, "city": "Fort Worth", "latitude": 32.779992, "longitude": -97.294915, "name": "Carter Riverside", "state": "TX", "county": "Tarrant", "is_village": 0}, {"id": 422772, "city": "Fort Worth", "latitude": 32.714013, "longitude": -97.220445, "name": "Carver Heights East", "state": "TX", "county": "Tarrant", "is_village": 0}, {"id": 422773, "city": "Fort Worth", "latitude": 32.729869, "longitude": -97.246884, "name": "Caville", "state": "TX", "county": "Tarrant", "is_village": 0}, {"id": 422774, "city": "Fort Worth", "latitude": 32.752301, "longitude": -97.508803, "name": "Central Chapel Creek", "state": "TX", "county": "Tarrant", "is_village": 0}, {"id": 422775, "city": "Fort Worth", "latitude": 32.749351, "longitude": -97.243749, "name": "Central Meadowbrook", "state": "TX", "county": "Tarrant", "is_village": 0}, {"id": 422776, "city": "Fort Worth", "latitude": 33.014048, "longitude": -97.265137, "name": "Chadwick Farms", "state": "TX", "county": "Tarrant", "is_village": 0}, {"id": 422777, "city": "Fort Worth", "latitude": 32.735422, "longitude": -97.501713, "name": "Chapel Creek", "state": "TX", "county": "Tarrant", "is_village": 0}, {"id": 422778, "city": "Fort Worth", "latitude": 32.721029, "longitude": -97.487345, "name": "Chapin   Alemeda", "state": "TX", "county": "Tarrant", "is_village": 0}, {"id": 422779, "city": "Fort Worth", "latitude": 32.86713, "longitude": -97.41923, "name": "Cheyenne Ridge", "state": "TX", "county": "Tarrant", "is_village": 0}, {"id": 422780, "city": "Fort Worth", "latitude": 32.888959, "longitude": -97.340159, "name": "Chisholm Ridge", "state": "TX", "county": "Tarrant", "is_village": 0}, {"id": 422781, "city": "Fort Worth", "latitude": 32.762783, "longitude": -97.189017, "name": "Cobblestone", "state": "TX", "county": "Tarrant", "is_village": 0}, {"id": 422782, "city": "Fort Worth", "latitude": 32.712442, "longitude": -97.370539, "name": "Colonial Hills", "state": "TX", "county": "Tarrant", "is_village": 0}, {"id": 422783, "city": "Fort Worth", "latitude": 32.751789, "longitude": -97.187984, "name": "Cookes Meadow", "state": "TX", "county": "Tarrant", "is_village": 0}, {"id": 422784, "city": "Fort Worth", "latitude": 32.897267, "longitude": -97.278507, "name": "Coventry Hills", "state": "TX", "county": "Tarrant", "is_village": 0}, {"id": 422785, "city": "Fort Worth", "latitude": 32.925747, "longitude": -97.299226, "name": "Crawford Farms", "state": "TX", "county": "Tarrant", "is_village": 0}, {"id": 422786, "city": "Fort Worth", "latitude": 32.74654, "longitude": -97.388118, "name": "Crestline Area", "state": "TX", "county": "Tarrant", "is_village": 0}, {"id": 422787, "city": "Fort Worth", "latitude": 32.610381, "longitude": -97.325957, "name": "Deer Creek North", "state": "TX", "county": "Tarrant", "is_village": 0}, {"id": 422788, "city": "Fort Worth", "latitude": 32.810003, "longitude": -97.332115, "name": "Diamond Hill - Jarvis", "state": "TX", "county": "Tarrant", "is_village": 0}, {"id": 422789, "city": "Fort Worth", "latitude": 32.867782, "longitude": -97.432861, "name": "Eagle Ranch", "state": "TX", "county": "Tarrant", "is_village": 0}, {"id": 422790, "city": "Fort Worth", "latitude": 32.796364, "longitude": -97.43275, "name": "East Lake Worth", "state": "TX", "county": "Tarrant", "is_village": 0}, {"id": 422791, "city": "Fort Worth", "latitude": 32.753387, "longitude": -97.232744, "name": "Eastern Hills", "state": "TX", "county": "Tarrant", "is_village": 0}, {"id": 422792, "city": "Fort Worth", "latitude": 32.704321, "longitude": -97.260904, "name": "Eastwood Pleasant Glade", "state": "TX", "county": "Tarrant", "is_village": 0}, {"id": 422793, "city": "Fort Worth", "latitude": 32.690509, "longitude": -97.259319, "name": "Echo Heights", "state": "TX", "county": "Tarrant", "is_village": 0}, {"id": 422794, "city": "Fort Worth", "latitude": 32.73335, "longitude": -97.286171, "name": "El Poly Pyramid", "state": "TX", "county": "Tarrant", "is_village": 0}, {"id": 422795, "city": "Fort Worth", "latitude": 32.854451, "longitude": -97.302215, "name": "Fairway Bend", "state": "TX", "county": "Tarrant", "is_village": 0}, {"id": 422796, "city": "Fort Worth", "latitude": 32.763934, "longitude": -97.492545, "name": "Falcon Ridge", "state": "TX", "county": "Tarrant", "is_village": 0}, {"id": 422797, "city": "Fort Worth", "latitude": 32.751608, "longitude": -97.166447, "name": "Far East", "state": "TX", "county": "Tarrant", "is_village": 0}, {"id": 422798, "city": "Fort Worth", "latitude": 32.799205, "longitude": -97.369494, "name": "Far Greater Northside", "state": "TX", "county": "Tarrant", "is_village": 0}, {"id": 422799, "city": "Fort Worth", "latitude": 32.635815, "longitude": -97.379954, "name": "Far Southwest", "state": "TX", "county": "Tarrant", "is_village": 0}, {"id": 422800, "city": "Fort Worth", "latitude": 32.847849, "longitude": -97.422146, "name": "Stone Creek Ranch", "state": "TX", "county": "Tarrant", "is_village": 0}, {"id": 422801, "city": "Fort Worth", "latitude": 32.921664, "longitude": -97.371528, "name": "Fossil Hill Estates", "state": "TX", "county": "Tarrant", "is_village": 0}, {"id": 422802, "city": "Fort Worth", "latitude": 32.682787, "longitude": -97.383421, "name": "Foster Park", "state": "TX", "county": "Tarrant", "is_village": 0}, {"id": 422803, "city": "Fort Worth", "latitude": 32.614656, "longitude": -97.382353, "name": "Fox Run", "state": "TX", "county": "Tarrant", "is_village": 0}, {"id": 422804, "city": "Fort Worth", "latitude": 32.711028, "longitude": -97.354386, "name": "Frisco Heights", "state": "TX", "county": "Tarrant", "is_village": 0}, {"id": 422805, "city": "Fort Worth", "latitude": 32.745757, "longitude": -97.509341, "name": "FW Vista West", "state": "TX", "county": "Tarrant", "is_village": 0}, {"id": 422806, "city": "Fort Worth", "latitude": 32.712729, "longitude": -97.417849, "name": "Gardens of Westridge", "state": "TX", "county": "Tarrant", "is_village": 0}, {"id": 422807, "city": "Fort Worth", "latitude": 32.696095, "longitude": -97.292701, "name": "Glencrest", "state": "TX", "county": "Tarrant", "is_village": 0}, {"id": 422808, "city": "Fort Worth", "latitude": 32.740481, "longitude": -97.306882, "name": "Glenwood Triangle", "state": "TX", "county": "Tarrant", "is_village": 0}, {"id": 422809, "city": "Fort Worth", "latitude": 32.832557, "longitude": -97.418227, "name": "Greenfield Acres", "state": "TX", "county": "Tarrant", "is_village": 0}, {"id": 422810, "city": "Fort Worth", "latitude": 32.64379, "longitude": -97.335022, "name": "Hallmark-Camelot", "state": "TX", "county": "Tarrant", "is_village": 0}, {"id": 422811, "city": "Fort Worth", "latitude": 32.708081, "longitude": -97.420652, "name": "Hampton Place", "state": "TX", "county": "Tarrant", "is_village": 0}, {"id": 422812, "city": "Fort Worth", "latitude": 32.892471, "longitude": -97.451899, "name": "Harbour Points", "state": "TX", "county": "Tarrant", "is_village": 0}, {"id": 422813, "city": "Fort Worth", "latitude": 32.75019, "longitude": -97.207398, "name": "Ryanwood", "state": "TX", "county": "Tarrant", "is_village": 0}, {"id": 422814, "city": "Fort Worth", "latitude": 33.040315, "longitude": -97.316939, "name": "Harriet Creek Ranch", "state": "TX", "county": "Tarrant", "is_village": 0}, {"id": 422815, "city": "Fort Worth", "latitude": 32.967362, "longitude": -97.268003, "name": "Harvest Ridge", "state": "TX", "county": "Tarrant", "is_village": 0}, {"id": 422816, "city": "Fort Worth", "latitude": 32.900741, "longitude": -97.275281, "name": "Heights of Park Vista", "state": "TX", "county": "Tarrant", "is_village": 0}, {"id": 422817, "city": "Fort Worth", "latitude": 32.910278, "longitude": -97.295731, "name": "Heritage Glen", "state": "TX", "county": "Tarrant", "is_village": 0}, {"id": 422818, "city": "Fort Worth", "latitude": 32.910979, "longitude": -97.289699, "name": "Heritage", "state": "TX", "county": "Tarrant", "is_village": 0}, {"id": 422819, "city": "Fort Worth", "latitude": 32.725094, "longitude": -97.311846, "name": "Hillside Morningside", "state": "TX", "county": "Tarrant", "is_village": 0}, {"id": 422820, "city": "Fort Worth", "latitude": 32.725206, "longitude": -97.229756, "name": "Carver Heights", "state": "TX", "county": "Tarrant", "is_village": 0}, {"id": 422821, "city": "Fort Worth", "latitude": 32.738028, "longitude": -97.31171, "name": "Historic Southside", "state": "TX", "county": "Tarrant", "is_village": 0}, {"id": 422822, "city": "Fort Worth", "latitude": 32.741803, "longitude": -97.176708, "name": "Hollow Hills", "state": "TX", "county": "Tarrant", "is_village": 0}, {"id": 422823, "city": "Fort Worth", "latitude": 32.681005, "longitude": -97.338454, "name": "Hubbard Heights", "state": "TX", "county": "Tarrant", "is_village": 0}, {"id": 422824, "city": "Fort Worth", "latitude": 32.654227, "longitude": -97.412004, "name": "Hulen Bend Estates", "state": "TX", "county": "Tarrant", "is_village": 0}, {"id": 422825, "city": "Fort Worth", "latitude": 32.625744, "longitude": -97.394141, "name": "Hulen Heights", "state": "TX", "county": "Tarrant", "is_village": 0}, {"id": 422826, "city": "Fort Worth", "latitude": 32.824454, "longitude": -97.426345, "name": "Jenkins Heights - Crest Ridge", "state": "TX", "county": "Tarrant", "is_village": 0}, {"id": 422827, "city": "Fort Worth", "latitude": 32.711254, "longitude": -97.329252, "name": "Jennings - May St. Louis", "state": "TX", "county": "Tarrant", "is_village": 0}, {"id": 422828, "city": "Fort Worth", "latitude": 32.770922, "longitude": -97.182489, "name": "John T White", "state": "TX", "county": "Tarrant", "is_village": 0}, {"id": 422829, "city": "Fort Worth", "latitude": 32.804827, "longitude": -97.19377, "name": "Lake of River Trails", "state": "TX", "county": "Tarrant", "is_village": 0}, {"id": 422830, "city": "Fort Worth", "latitude": 32.747314, "longitude": -97.191959, "name": "Lakewood Addition", "state": "TX", "county": "Tarrant", "is_village": 0}, {"id": 422831, "city": "Fort Worth", "latitude": 32.825275, "longitude": -97.405301, "name": "Marine Creek", "state": "TX", "county": "Tarrant", "is_village": 0}, {"id": 422832, "city": "Fort Worth", "latitude": 32.842365, "longitude": -97.40983, "name": "Marine Creek Ranch", "state": "TX", "county": "Tarrant", "is_village": 0}, {"id": 422833, "city": "Fort Worth", "latitude": 32.779584, "longitude": -97.345974, "name": "Marine Park", "state": "TX", "county": "Tarrant", "is_village": 0}, {"id": 422834, "city": "Fort Worth", "latitude": 32.630956, "longitude": -97.395502, "name": "Meadows of Candleridge", "state": "TX", "county": "Tarrant", "is_village": 0}, {"id": 422835, "city": "Fort Worth", "latitude": 32.677955, "longitude": -97.428318, "name": "Meadows West", "state": "TX", "county": "Tarrant", "is_village": 0}, {"id": 422836, "city": "Fort Worth", "latitude": 32.657835, "longitude": -97.437275, "name": "Mira Vista", "state": "TX", "county": "Tarrant", "is_village": 0}, {"id": 422837, "city": "Fort Worth", "latitude": 32.729915, "longitude": -97.352283, "name": "Mistletoe Heights", "state": "TX", "county": "Tarrant", "is_village": 0}, {"id": 422838, "city": "Fort Worth", "latitude": 32.713162, "longitude": -97.287453, "name": "Mitchell Boulevard", "state": "TX", "county": "Tarrant", "is_village": 0}, {"id": 422839, "city": "Fort Worth", "latitude": 32.701308, "longitude": -97.312469, "name": "Morningside Park", "state": "TX", "county": "Tarrant", "is_village": 0}, {"id": 422840, "city": "Fort Worth", "latitude": 32.745589, "longitude": -97.311278, "name": "Near East Side", "state": "TX", "county": "Tarrant", "is_village": 0}, {"id": 422841, "city": "Fort Worth", "latitude": 32.788818, "longitude": -97.473501, "name": "South Lake Worth", "state": "TX", "county": "Tarrant", "is_village": 0}, {"id": 422842, "city": "Fort Worth", "latitude": 32.79566, "longitude": -97.392124, "name": "North Beverly Hills", "state": "TX", "county": "Tarrant", "is_village": 0}, {"id": 422843, "city": "Fort Worth", "latitude": 32.666657, "longitude": -97.338453, "name": "North Greenbriar", "state": "TX", "county": "Tarrant", "is_village": 0}, {"id": 422844, "city": "Fort Worth", "latitude": 32.748024, "longitude": -97.374967, "name": "North Hi Mount", "state": "TX", "county": "Tarrant", "is_village": 0}, {"id": 422845, "city": "Fort Worth", "latitude": 32.809686, "longitude": -97.452264, "name": "North Lake Worth", "state": "TX", "county": "Tarrant", "is_village": 0}, {"id": 422846, "city": "Fort Worth", "latitude": 32.675237, "longitude": -97.30412, "name": "Oakridge Terrace", "state": "TX", "county": "Tarrant", "is_village": 0}, {"id": 422847, "city": "Fort Worth", "latitude": 32.691542, "longitude": -97.386099, "name": "Overton Park", "state": "TX", "county": "Tarrant", "is_village": 0}, {"id": 422848, "city": "Fort Worth", "latitude": 32.670142, "longitude": -97.391763, "name": "Overton South", "state": "TX", "county": "Tarrant", "is_village": 0}, {"id": 422849, "city": "Fort Worth", "latitude": 32.695631, "longitude": -97.394656, "name": "Overton West", "state": "TX", "county": "Tarrant", "is_village": 0}, {"id": 422850, "city": "Fort Worth", "latitude": 32.699037, "longitude": -97.395549, "name": "Overton Woods", "state": "TX", "county": "Tarrant", "is_village": 0}, {"id": 422851, "city": "Fort Worth", "latitude": 32.594826, "longitude": -97.406917, "name": "Panther Heights", "state": "TX", "county": "Tarrant", "is_village": 0}, {"id": 422852, "city": "Fort Worth", "latitude": 32.879626, "longitude": -97.277283, "name": "Park Glen", "state": "TX", "county": "Tarrant", "is_village": 0}, {"id": 422853, "city": "Fort Worth", "latitude": 32.648798, "longitude": -97.413733, "name": "Park Palisades", "state": "TX", "county": "Tarrant", "is_village": 0}, {"id": 422854, "city": "Fort Worth", "latitude": 32.85805, "longitude": -97.399903, "name": "Parkview Hills", "state": "TX", "county": "Tarrant", "is_village": 0}, {"id": 422855, "city": "Fort Worth", "latitude": 32.711002, "longitude": -97.348055, "name": "Paschal", "state": "TX", "county": "Tarrant", "is_village": 0}, {"id": 422856, "city": "Fort Worth", "latitude": 32.609758, "longitude": -97.382348, "name": "Poynter Crossing", "state": "TX", "county": "Tarrant", "is_village": 0}, {"id": 422857, "city": "Fort Worth", "latitude": 32.649417, "longitude": -97.424528, "name": "Quail Ridge", "state": "TX", "county": "Tarrant", "is_village": 0}, {"id": 422858, "city": "Fort Worth", "latitude": 32.718862, "longitude": -97.227673, "name": "Ramey Place", "state": "TX", "county": "Tarrant", "is_village": 0}, {"id": 422859, "city": "Fort Worth", "latitude": 32.693123, "longitude": -97.43023, "name": "Ridglea Country Club", "state": "TX", "county": "Tarrant", "is_village": 0}, {"id": 422860, "city": "Fort Worth", "latitude": 32.713182, "longitude": -97.426742, "name": "Ridglea Hills", "state": "TX", "county": "Tarrant", "is_village": 0}, {"id": 422861, "city": "Fort Worth", "latitude": 32.712906, "longitude": -97.414329, "name": "Ridglea", "state": "TX", "county": "Tarrant", "is_village": 0}, {"id": 422862, "city": "Fort Worth", "latitude": 32.726113, "longitude": -97.419377, "name": "Ridglea North", "state": "TX", "county": "Tarrant", "is_village": 0}, {"id": 422863, "city": "Fort Worth", "latitude": 32.744685, "longitude": -97.425151, "name": "Ridgmar", "state": "TX", "county": "Tarrant", "is_village": 0}, {"id": 422864, "city": "Fort Worth", "latitude": 32.798347, "longitude": -97.186554, "name": "River Trails", "state": "TX", "county": "Tarrant", "is_village": 0}, {"id": 422865, "city": "Fort Worth", "latitude": 32.756072, "longitude": -97.39813, "name": "Riverbend", "state": "TX", "county": "Tarrant", "is_village": 0}, {"id": 422866, "city": "Fort Worth", "latitude": 32.770029, "longitude": -97.32824, "name": "Rock Island - Samuels", "state": "TX", "county": "Tarrant", "is_village": 0}, {"id": 422867, "city": "Fort Worth", "latitude": 32.712108, "longitude": -97.339674, "name": "Ryan Place", "state": "TX", "county": "Tarrant", "is_village": 0}, {"id": 422868, "city": "Fort Worth", "latitude": 32.771817, "longitude": -97.20854, "name": "Sandybrook", "state": "TX", "county": "Tarrant", "is_village": 0}, {"id": 422869, "city": "Fort Worth", "latitude": 32.773644, "longitude": -97.310948, "name": "Scenic Bluff", "state": "TX", "county": "Tarrant", "is_village": 0}, {"id": 422870, "city": "Fort Worth", "latitude": 32.819219, "longitude": -97.460313, "name": "Scenic Shores", "state": "TX", "county": "Tarrant", "is_village": 0}, {"id": 422871, "city": "Fort Worth", "latitude": 32.702339, "longitude": -97.337224, "name": "Shaw Clarke", "state": "TX", "county": "Tarrant", "is_village": 0}, {"id": 422872, "city": "Fort Worth", "latitude": 32.710571, "longitude": -97.254194, "name": "South Edgewood", "state": "TX", "county": "Tarrant", "is_village": 0}, {"id": 422873, "city": "Fort Worth", "latitude": 32.709443, "longitude": -97.335217, "name": "South Hemphill Heights", "state": "TX", "county": "Tarrant", "is_village": 0}, {"id": 422874, "city": "Fort Worth", "latitude": 32.638846, "longitude": -97.356361, "name": "South Meadows Crossing", "state": "TX", "county": "Tarrant", "is_village": 0}, {"id": 422875, "city": "Fort Worth", "latitude": 32.716662, "longitude": -97.271449, "name": "South Poly", "state": "TX", "county": "Tarrant", "is_village": 0}, {"id": 422876, "city": "Fort Worth", "latitude": 32.675636, "longitude": -97.313498, "name": "Southland Terrace", "state": "TX", "county": "Tarrant", "is_village": 0}, {"id": 422877, "city": "Fort Worth", "latitude": 32.862627, "longitude": -97.275978, "name": "Sterling Creek", "state": "TX", "county": "Tarrant", "is_village": 0}, {"id": 422878, "city": "Fort Worth", "latitude": 32.621207, "longitude": -97.394586, "name": "Stone Meadow", "state": "TX", "county": "Tarrant", "is_village": 0}, {"id": 422879, "city": "Fort Worth", "latitude": 32.72149, "longitude": -97.252804, "name": "Stop Six", "state": "TX", "county": "Tarrant", "is_village": 0}, {"id": 422880, "city": "Fort Worth", "latitude": 32.71488, "longitude": -97.242967, "name": "Stop Six Sunrise Edition", "state": "TX", "county": "Tarrant", "is_village": 0}, {"id": 422881, "city": "Fort Worth", "latitude": 32.624988, "longitude": -97.404057, "name": "Summer Creek", "state": "TX", "county": "Tarrant", "is_village": 0}, {"id": 422882, "city": "Fort Worth", "latitude": 32.875809, "longitude": -97.292084, "name": "Summerfields", "state": "TX", "county": "Tarrant", "is_village": 0}, {"id": 422883, "city": "Fort Worth", "latitude": 32.720549, "longitude": -97.391294, "name": "Sunset Heights South", "state": "TX", "county": "Tarrant", "is_village": 0}, {"id": 422884, "city": "Fort Worth", "latitude": 32.742305, "longitude": -97.347672, "name": "Sunset Terrace", "state": "TX", "county": "Tarrant", "is_village": 0}, {"id": 422885, "city": "Fort Worth", "latitude": 32.787569, "longitude": -97.305047, "name": "Sylvan Heights West", "state": "TX", "county": "Tarrant", "is_village": 0}, {"id": 422886, "city": "Fort Worth", "latitude": 32.770007, "longitude": -97.505628, "name": "Tejas Trails", "state": "TX", "county": "Tarrant", "is_village": 0}, {"id": 422887, "city": "Fort Worth", "latitude": 32.727272, "longitude": -97.228002, "name": "Bunch-Ellington", "state": "TX", "county": "Tarrant", "is_village": 0}, {"id": 422888, "city": "Fort Worth", "latitude": 32.851279, "longitude": -97.320221, "name": "The Crossing of Fossil Creek", "state": "TX", "county": "Tarrant", "is_village": 0}, {"id": 422889, "city": "Fort Worth", "latitude": 32.958581, "longitude": -97.276141, "name": "McPherson Ranch", "state": "TX", "county": "Tarrant", "is_village": 0}, {"id": 422890, "city": "Fort Worth", "latitude": 32.599601, "longitude": -97.324786, "name": "The Parks of Deer Creek", "state": "TX", "county": "Tarrant", "is_village": 0}, {"id": 422891, "city": "Fort Worth", "latitude": 32.979732, "longitude": -97.284711, "name": "The Ranches", "state": "TX", "county": "Tarrant", "is_village": 0}, {"id": 422892, "city": "Fort Worth", "latitude": 32.913499, "longitude": -97.418709, "name": "The Trails of Fossil Creek", "state": "TX", "county": "Tarrant", "is_village": 0}, {"id": 422893, "city": "Fort Worth", "latitude": 32.855241, "longitude": -97.423262, "name": "The Trails of Marine Creek", "state": "TX", "county": "Tarrant", "is_village": 0}, {"id": 422894, "city": "Fort Worth", "latitude": 32.902637, "longitude": -97.268193, "name": "The Vineyards at Heritage", "state": "TX", "county": "Tarrant", "is_village": 0}, {"id": 422895, "city": "Fort Worth", "latitude": 32.897282, "longitude": -97.283323, "name": "Trace Ridge", "state": "TX", "county": "Tarrant", "is_village": 0}, {"id": 422896, "city": "Fort Worth", "latitude": 32.759305, "longitude": -97.306756, "name": "United Riverside", "state": "TX", "county": "Tarrant", "is_village": 0}, {"id": 422897, "city": "Fort Worth", "latitude": 32.716133, "longitude": -97.365626, "name": "University West", "state": "TX", "county": "Tarrant", "is_village": 0}, {"id": 422898, "city": "Fort Worth", "latitude": 32.750795, "longitude": -97.339797, "name": "Upper West Side", "state": "TX", "county": "Tarrant", "is_village": 0}, {"id": 422899, "city": "Fort Worth", "latitude": 32.712233, "longitude": -97.381315, "name": "Villages of Stonegate", "state": "TX", "county": "Tarrant", "is_village": 0}, {"id": 422900, "city": "Fort Worth", "latitude": 32.947312, "longitude": -97.284241, "name": "Villages of Woodland Springs", "state": "TX", "county": "Tarrant", "is_village": 0}, {"id": 422901, "city": "Fort Worth", "latitude": 32.924832, "longitude": -97.288016, "name": "Vista Meadows", "state": "TX", "county": "Tarrant", "is_village": 0}, {"id": 422902, "city": "Fort Worth", "latitude": 32.678131, "longitude": -97.23099, "name": "Waterview at Enchanted Bay", "state": "TX", "county": "Tarrant", "is_village": 0}, {"id": 422903, "city": "Fort Worth", "latitude": 32.736841, "longitude": -97.400299, "name": "West Byers", "state": "TX", "county": "Tarrant", "is_village": 0}, {"id": 422904, "city": "Fort Worth", "latitude": 32.736956, "longitude": -97.413826, "name": "Westridge Area", "state": "TX", "county": "Tarrant", "is_village": 0}, {"id": 422905, "city": "Fort Worth", "latitude": 32.746358, "longitude": -97.278464, "name": "West Meadowbrook", "state": "TX", "county": "Tarrant", "is_village": 0}, {"id": 422906, "city": "Fort Worth", "latitude": 32.71602, "longitude": -97.324541, "name": "West Morningside", "state": "TX", "county": "Tarrant", "is_village": 0}, {"id": 422907, "city": "Fort Worth", "latitude": 32.693188, "longitude": -97.374989, "name": "Westcliff West", "state": "TX", "county": "Tarrant", "is_village": 0}, {"id": 422908, "city": "Fort Worth", "latitude": 32.729528, "longitude": -97.458784, "name": "Western Hills North", "state": "TX", "county": "Tarrant", "is_village": 0}, {"id": 422909, "city": "Fort Worth", "latitude": 32.764567, "longitude": -97.254084, "name": "White Lake Hills", "state": "TX", "county": "Tarrant", "is_village": 0}, {"id": 422910, "city": "Fort Worth", "latitude": 32.695147, "longitude": -97.326186, "name": "Worth Heights", "state": "TX", "county": "Tarrant", "is_village": 0}]}, "message": "City neighborhoods list fetched successfully"}