{"status": "success", "content": {"count": 227, "results": [{"id": 7930, "city": "Chicago", "latitude": 41.906824, "longitude": -87.677278, "name": "Wicker Park", "state": "IL", "county": "Cook County", "is_village": 0}, {"id": 28173, "city": "Chicago", "latitude": 41.928408, "longitude": -87.756258, "name": "Cragin", "state": "IL", "county": "Cook County", "is_village": 0}, {"id": 33420, "city": "Chicago", "latitude": 41.852318, "longitude": -87.655448, "name": "Pilsen", "state": "IL", "county": "Cook County", "is_village": 0}, {"id": 33597, "city": "Chicago", "latitude": 41.968722, "longitude": -87.685219, "name": "Ravenswood", "state": "IL", "county": "Cook County", "is_village": 0}, {"id": 51847, "city": "Chicago", "latitude": 41.995343, "longitude": -87.758759, "name": "Edgebrook", "state": "IL", "county": "Cook County", "is_village": 0}, {"id": 137228, "city": "Chicago", "latitude": 41.654197, "longitude": -87.598579, "name": "Altgeld Gardens", "state": "IL", "county": "Cook County", "is_village": 0}, {"id": 137603, "city": "Chicago", "latitude": 41.921271, "longitude": -87.672429, "name": "Bucktown", "state": "IL", "county": "Cook County", "is_village": 0}, {"id": 137634, "city": "Chicago", "latitude": 41.729295, "longitude": -87.600558, "name": "Burnside", "state": "IL", "county": "Cook County", "is_village": 0}, {"id": 137799, "city": "Chicago", "latitude": 41.850016, "longitude": -87.637169, "name": "Chinatown", "state": "IL", "county": "Cook County", "is_village": 0}, {"id": 137841, "city": "Chicago", "latitude": 41.77927, "longitude": -87.778826, "name": "Clearing (W)", "state": "IL", "county": "Cook County", "is_village": 0}, {"id": 138129, "city": "Chicago", "latitude": 41.952651, "longitude": -87.796669, "name": "Dunning", "state": "IL", "county": "Cook County", "is_village": 0}, {"id": 138166, "city": "Chicago", "latitude": 41.703594, "longitude": -87.534651, "name": "East Side", "state": "IL", "county": "Cook County", "is_village": 0}, {"id": 138261, "city": "Chicago", "latitude": 41.776143, "longitude": -87.644802, "name": "Englewood", "state": "IL", "county": "Cook County", "is_village": 0}, {"id": 138732, "city": "Chicago", "latitude": 41.683521, "longitude": -87.556598, "name": "Hegewisch", "state": "IL", "county": "Cook County", "is_village": 0}, {"id": 139408, "city": "Chicago", "latitude": 41.833761, "longitude": -87.67525, "name": "McKinley Park", "state": "IL", "county": "Cook County", "is_village": 0}, {"id": 140000, "city": "Chicago", "latitude": 41.84334, "longitude": -87.611893, "name": "Prairie Shores", "state": "IL", "county": "Cook County", "is_village": 0}, {"id": 140024, "city": "Chicago", "latitude": 41.688436, "longitude": -87.605376, "name": "Pullman", "state": "IL", "county": "Cook County", "is_village": 0}, {"id": 140292, "city": "Chicago", "latitude": 41.986301, "longitude": -87.738209, "name": "Sauganash", "state": "IL", "county": "Cook County", "is_village": 0}, {"id": 140437, "city": "Chicago", "latitude": 41.737386, "longitude": -87.557379, "name": "South Chicago", "state": "IL", "county": "Cook County", "is_village": 0}, {"id": 140440, "city": "Chicago", "latitude": 41.709162, "longitude": -87.559857, "name": "South Deering", "state": "IL", "county": "Cook County", "is_village": 0}, {"id": 140913, "city": "Chicago", "latitude": 41.671431, "longitude": -87.636875, "name": "West Pullman", "state": "IL", "county": "Cook County", "is_village": 0}, {"id": 269566, "city": "Chicago", "latitude": 41.96474, "longitude": -87.713184, "name": "Albany Park", "state": "IL", "county": "Cook County", "is_village": 0}, {"id": 269567, "city": "Chicago", "latitude": 41.979764, "longitude": -87.669039, "name": "Andersonville", "state": "IL", "county": "Cook County", "is_village": 0}, {"id": 269568, "city": "Chicago", "latitude": 41.83437, "longitude": -87.725183, "name": "Archer Heights", "state": "IL", "county": "Cook County", "is_village": 0}, {"id": 269570, "city": "Chicago", "latitude": 41.74822, "longitude": -87.704459, "name": "Ashburn", "state": "IL", "county": "Cook County", "is_village": 0}, {"id": 269571, "city": "Chicago", "latitude": 41.743345, "longitude": -87.657131, "name": "Gresham", "state": "IL", "county": "Cook County", "is_village": 0}, {"id": 269572, "city": "Chicago", "latitude": 41.747711, "longitude": -87.59221, "name": "Avalon Park", "state": "IL", "county": "Cook County", "is_village": 0}, {"id": 269573, "city": "Chicago", "latitude": 41.93724, "longitude": -87.705233, "name": "Avondale", "state": "IL", "county": "Cook County", "is_village": 0}, {"id": 269576, "city": "Chicago", "latitude": 41.782586, "longitude": -87.69821, "name": "Chicago Lawn", "state": "IL", "county": "Cook County", "is_village": 0}, {"id": 269577, "city": "Chicago", "latitude": 41.884698, "longitude": -87.711007, "name": "East Garfield Park", "state": "IL", "county": "Cook County", "is_village": 0}, {"id": 269578, "city": "Chicago", "latitude": 41.990666, "longitude": -87.667523, "name": "Edgewater", "state": "IL", "county": "Cook County", "is_village": 0}, {"id": 269579, "city": "Chicago", "latitude": 42.007842, "longitude": -87.814304, "name": "Edison Park", "state": "IL", "county": "Cook County", "is_village": 0}, {"id": 269580, "city": "Chicago", "latitude": 41.979441, "longitude": -87.752106, "name": "Forest Glen", "state": "IL", "county": "Cook County", "is_village": 0}, {"id": 269581, "city": "Chicago", "latitude": 41.808989, "longitude": -87.633303, "name": "Fuller Park", "state": "IL", "county": "Cook County", "is_village": 0}, {"id": 269582, "city": "Chicago", "latitude": 41.795342, "longitude": -87.696696, "name": "Gage Park", "state": "IL", "county": "Cook County", "is_village": 0}, {"id": 269584, "city": "Chicago", "latitude": 41.788081, "longitude": -87.771853, "name": "Garfield Ridge", "state": "IL", "county": "Cook County", "is_village": 0}, {"id": 269585, "city": "Chicago", "latitude": 41.902836, "longitude": -87.706614, "name": "Humboldt Park", "state": "IL", "county": "Cook County", "is_village": 0}, {"id": 269586, "city": "Chicago", "latitude": 41.794088, "longitude": -87.596527, "name": "Hyde Park", "state": "IL", "county": "Cook County", "is_village": 0}, {"id": 269587, "city": "Chicago", "latitude": 41.952955, "longitude": -87.711134, "name": "Irving Park", "state": "IL", "county": "Cook County", "is_village": 0}, {"id": 269588, "city": "Chicago", "latitude": 41.97863, "longitude": -87.767681, "name": "Jefferson Park", "state": "IL", "county": "Cook County", "is_village": 0}, {"id": 269589, "city": "Chicago", "latitude": 41.943511, "longitude": -87.668225, "name": "Lake View", "state": "IL", "county": "Cook County", "is_village": 0}, {"id": 269590, "city": "Chicago", "latitude": 41.918651, "longitude": -87.638259, "name": "Lincoln Park", "state": "IL", "county": "Cook County", "is_village": 0}, {"id": 269591, "city": "Chicago", "latitude": 41.969, "longitude": -87.688949, "name": "Lincoln Square", "state": "IL", "county": "Cook County", "is_village": 0}, {"id": 269592, "city": "Chicago", "latitude": 41.924549, "longitude": -87.707228, "name": "Logan Square", "state": "IL", "county": "Cook County", "is_village": 0}, {"id": 269593, "city": "Chicago", "latitude": 41.882393, "longitude": -87.62586, "name": "Chicago Loop", "state": "IL", "county": "Cook County", "is_village": 0}, {"id": 269595, "city": "Chicago", "latitude": 41.687719, "longitude": -87.661738, "name": "Morgan Park", "state": "IL", "county": "Cook County", "is_village": 0}, {"id": 269596, "city": "Chicago", "latitude": 41.693864, "longitude": -87.716149, "name": "Mount Greenwood", "state": "IL", "county": "Cook County", "is_village": 0}, {"id": 269597, "city": "Chicago", "latitude": 41.895824, "longitude": -87.631525, "name": "Near North", "state": "IL", "county": "Cook County", "is_village": 0}, {"id": 269599, "city": "Chicago", "latitude": 41.879471, "longitude": -87.672349, "name": "Near West Side", "state": "IL", "county": "Cook County", "is_village": 0}, {"id": 269600, "city": "Chicago", "latitude": 41.954132, "longitude": -87.681156, "name": "North Center", "state": "IL", "county": "Cook County", "is_village": 0}, {"id": 269602, "city": "Chicago", "latitude": 41.99173, "longitude": -87.792199, "name": "Norwood Park East", "state": "IL", "county": "Cook County", "is_village": 0}, {"id": 269603, "city": "Chicago", "latitude": 41.963366, "longitude": -87.842534, "name": "O'Hare", "state": "IL", "county": "Cook County", "is_village": 0}, {"id": 269605, "city": "Chicago", "latitude": 42.010501, "longitude": -87.669688, "name": "Rogers Park", "state": "IL", "county": "Cook County", "is_village": 0}, {"id": 269607, "city": "Chicago", "latitude": 41.856991, "longitude": -87.625699, "name": "South Loop", "state": "IL", "county": "Cook County", "is_village": 0}, {"id": 269608, "city": "Chicago", "latitude": 41.76266, "longitude": -87.563426, "name": "South Shore", "state": "IL", "county": "Cook County", "is_village": 0}, {"id": 269609, "city": "Chicago", "latitude": 41.967993, "longitude": -87.650121, "name": "Uptown", "state": "IL", "county": "Cook County", "is_village": 0}, {"id": 269610, "city": "Chicago", "latitude": 41.707112, "longitude": -87.650721, "name": "Washington Heights", "state": "IL", "county": "Cook County", "is_village": 0}, {"id": 269611, "city": "Chicago", "latitude": 41.794817, "longitude": -87.725573, "name": "West Elsdon", "state": "IL", "county": "Cook County", "is_village": 0}, {"id": 269612, "city": "Chicago", "latitude": 41.775721, "longitude": -87.67374, "name": "West Englewood", "state": "IL", "county": "Cook County", "is_village": 0}, {"id": 269613, "city": "Chicago", "latitude": 41.883515, "longitude": -87.735504, "name": "West Garfield Park", "state": "IL", "county": "Cook County", "is_village": 0}, {"id": 269614, "city": "Chicago", "latitude": 41.7716, "longitude": -87.727276, "name": "West Lawn", "state": "IL", "county": "Cook County", "is_village": 0}, {"id": 269615, "city": "Chicago", "latitude": 41.888978, "longitude": -87.671228, "name": "West Town", "state": "IL", "county": "Cook County", "is_village": 0}, {"id": 272951, "city": "Chicago", "latitude": 41.72352, "longitude": -87.673739, "name": "Beverly", "state": "IL", "county": "Cook County", "is_village": 0}, {"id": 273035, "city": "Chicago", "latitude": 41.83618, "longitude": -87.648296, "name": "Bridgeport", "state": "IL", "county": "Cook County", "is_village": 0}, {"id": 273040, "city": "Chicago", "latitude": 41.820708, "longitude": -87.699016, "name": "Brighton Park", "state": "IL", "county": "Cook County", "is_village": 0}, {"id": 273111, "city": "Chicago", "latitude": 41.729755, "longitude": -87.571982, "name": "Calumet Heights", "state": "IL", "county": "Cook County", "is_village": 0}, {"id": 273222, "city": "Chicago", "latitude": 41.747363, "longitude": -87.61509, "name": "Chatham", "state": "IL", "county": "Cook County", "is_village": 0}, {"id": 273964, "city": "Chicago", "latitude": 41.917002, "longitude": -87.736263, "name": "Hermosa", "state": "IL", "county": "Cook County", "is_village": 0}, {"id": 274178, "city": "Chicago", "latitude": 41.806817, "longitude": -87.591916, "name": "Kenwood", "state": "IL", "county": "Cook County", "is_village": 0}, {"id": 274579, "city": "Chicago", "latitude": 41.927732, "longitude": -87.795964, "name": "Montclare", "state": "IL", "county": "Cook County", "is_village": 0}, {"id": 274850, "city": "Chicago", "latitude": 41.824073, "longitude": -87.601449, "name": "Oakland", "state": "IL", "county": "Cook County", "is_village": 0}, {"id": 275083, "city": "Chicago", "latitude": 41.951259, "longitude": -87.766817, "name": "Portage Park", "state": "IL", "county": "Cook County", "is_village": 0}, {"id": 275192, "city": "Chicago", "latitude": 41.6473, "longitude": -87.616257, "name": "Riverdale", "state": "IL", "county": "Cook County", "is_village": 0}, {"id": 275251, "city": "Chicago", "latitude": 41.703423, "longitude": -87.622657, "name": "Roseland", "state": "IL", "county": "Cook County", "is_village": 0}, {"id": 275927, "city": "Chicago", "latitude": 41.791015, "longitude": -87.6159, "name": "Washington Park", "state": "IL", "county": "Cook County", "is_village": 0}, {"id": 276138, "city": "Chicago", "latitude": 41.779689, "longitude": -87.586095, "name": "Woodlawn", "state": "IL", "county": "Cook County", "is_village": 0}, {"id": 276349, "city": "Chicago", "latitude": 41.76221, "longitude": -87.595738, "name": "Grand Crossing", "state": "IL", "county": "Cook County", "is_village": 0}, {"id": 276477, "city": "Chicago", "latitude": 41.977341, "longitude": -87.716333, "name": "North Park", "state": "IL", "county": "Cook County", "is_village": 0}, {"id": 403109, "city": "Chicago", "latitude": 41.929257, "longitude": -87.775853, "name": "Belmont Central", "state": "IL", "county": "Cook County", "is_village": 0}, {"id": 403117, "city": "Chicago", "latitude": 41.838365, "longitude": -87.715089, "name": "Little Village", "state": "IL", "county": "Cook County", "is_village": 0}, {"id": 403120, "city": "Chicago", "latitude": 41.886556, "longitude": -87.760031, "name": "South Austin", "state": "IL", "county": "Cook County", "is_village": 0}, {"id": 403128, "city": "Chicago", "latitude": 41.743403, "longitude": -87.577194, "name": "Stony Island Park", "state": "IL", "county": "Cook County", "is_village": 0}, {"id": 403141, "city": "Chicago", "latitude": 41.868138, "longitude": -87.65558, "name": "University Village - Little Italy", "state": "IL", "county": "Cook County", "is_village": 0}, {"id": 403144, "city": "Chicago", "latitude": 41.834876, "longitude": -87.611018, "name": "Lake Meadows", "state": "IL", "county": "Cook County", "is_village": 0}, {"id": 403145, "city": "Chicago", "latitude": 41.824904, "longitude": -87.617388, "name": "Bronzeville", "state": "IL", "county": "Cook County", "is_village": 0}, {"id": 403146, "city": "Chicago", "latitude": 41.808604, "longitude": -87.659936, "name": "Back of the Yards", "state": "IL", "county": "Cook County", "is_village": 0}, {"id": 403148, "city": "Chicago", "latitude": 41.768105, "longitude": -87.697919, "name": "Marquette Park", "state": "IL", "county": "Cook County", "is_village": 0}, {"id": 403151, "city": "Chicago", "latitude": 41.746316, "longitude": -87.692415, "name": "Wrightwood", "state": "IL", "county": "Cook County", "is_village": 0}, {"id": 403159, "city": "Chicago", "latitude": 41.979538, "longitude": -87.901073, "name": "O'Hare International Airport", "state": "IL", "county": "Cook County", "is_village": 0}, {"id": 403168, "city": "Chicago", "latitude": 41.97743, "longitude": -87.815735, "name": "Oriole Park", "state": "IL", "county": "Cook County", "is_village": 0}, {"id": 403169, "city": "Chicago", "latitude": 42.002459, "longitude": -87.696526, "name": "West Rogers Park", "state": "IL", "county": "Cook County", "is_village": 0}, {"id": 403255, "city": "Chicago", "latitude": 41.986693, "longitude": -87.694344, "name": "Arcadia Terrace", "state": "IL", "county": "Cook County", "is_village": 0}, {"id": 403256, "city": "Chicago", "latitude": 41.987281, "longitude": -87.704213, "name": "Peterson Park", "state": "IL", "county": "Cook County", "is_village": 0}, {"id": 403257, "city": "Chicago", "latitude": 41.987326, "longitude": -87.653813, "name": "Edgewater Beach", "state": "IL", "county": "Cook County", "is_village": 0}, {"id": 403258, "city": "Chicago", "latitude": 41.992561, "longitude": -87.665239, "name": "Edgewater Glen", "state": "IL", "county": "Cook County", "is_village": 0}, {"id": 403259, "city": "Chicago", "latitude": 41.987164, "longitude": -87.665074, "name": "Magnolia Glen", "state": "IL", "county": "Cook County", "is_village": 0}, {"id": 403260, "city": "Chicago", "latitude": 41.979877, "longitude": -87.661819, "name": "Lakewood - Balmoral", "state": "IL", "county": "Cook County", "is_village": 0}, {"id": 403261, "city": "Chicago", "latitude": 41.963488, "longitude": -87.694532, "name": "Ravenswood Gardens", "state": "IL", "county": "Cook County", "is_village": 0}, {"id": 403262, "city": "Chicago", "latitude": 41.979403, "longitude": -87.697889, "name": "Budlong Woods", "state": "IL", "county": "Cook County", "is_village": 0}, {"id": 403263, "city": "Chicago", "latitude": 41.983319, "longitude": -87.681974, "name": "Bowmanville", "state": "IL", "county": "Cook County", "is_village": 0}, {"id": 403264, "city": "Chicago", "latitude": 41.958541, "longitude": -87.648898, "name": "Buena Park", "state": "IL", "county": "Cook County", "is_village": 0}, {"id": 403265, "city": "Chicago", "latitude": 41.965331, "longitude": -87.663518, "name": "Sheridan Park", "state": "IL", "county": "Cook County", "is_village": 0}, {"id": 403266, "city": "Chicago", "latitude": 41.973349, "longitude": -87.649563, "name": "Margate Park", "state": "IL", "county": "Cook County", "is_village": 0}, {"id": 403267, "city": "Chicago", "latitude": 41.958024, "longitude": -87.663051, "name": "Graceland West", "state": "IL", "county": "Cook County", "is_village": 0}, {"id": 403268, "city": "Chicago", "latitude": 41.986485, "longitude": -87.717785, "name": "Hollywood Park", "state": "IL", "county": "Cook County", "is_village": 0}, {"id": 403269, "city": "Chicago", "latitude": 41.993604, "longitude": -87.718993, "name": "Pulaski Park", "state": "IL", "county": "Cook County", "is_village": 0}, {"id": 403270, "city": "Chicago", "latitude": 41.983747, "longitude": -87.730194, "name": "Brynford Park", "state": "IL", "county": "Cook County", "is_village": 0}, {"id": 403271, "city": "Chicago", "latitude": 41.975253, "longitude": -87.738033, "name": "North Mayfair", "state": "IL", "county": "Cook County", "is_village": 0}, {"id": 403272, "city": "Chicago", "latitude": 41.980776, "longitude": -87.736846, "name": "Sauganash Woods", "state": "IL", "county": "Cook County", "is_village": 0}, {"id": 403273, "city": "Chicago", "latitude": 41.977716, "longitude": -87.736863, "name": "River's Edge", "state": "IL", "county": "Cook County", "is_village": 0}, {"id": 403274, "city": "Chicago", "latitude": 41.994321, "longitude": -87.767974, "name": "Old Edgebrook", "state": "IL", "county": "Cook County", "is_village": 0}, {"id": 403275, "city": "Chicago", "latitude": 42.001393, "longitude": -87.775377, "name": "Wildwood", "state": "IL", "county": "Cook County", "is_village": 0}, {"id": 403276, "city": "Chicago", "latitude": 41.990038, "longitude": -87.815304, "name": "Norwood Park West", "state": "IL", "county": "Cook County", "is_village": 0}, {"id": 403277, "city": "Chicago", "latitude": 41.989642, "longitude": -87.794502, "name": "Old Norwood Park", "state": "IL", "county": "Cook County", "is_village": 0}, {"id": 403278, "city": "Chicago", "latitude": 41.979114, "longitude": -87.797282, "name": "Union Ridge", "state": "IL", "county": "Cook County", "is_village": 0}, {"id": 403279, "city": "Chicago", "latitude": 41.971855, "longitude": -87.797465, "name": "Big Oaks", "state": "IL", "county": "Cook County", "is_village": 0}, {"id": 403280, "city": "Chicago", "latitude": 41.962912, "longitude": -87.841664, "name": "Schorsch Forest View", "state": "IL", "county": "Cook County", "is_village": 0}, {"id": 403281, "city": "Chicago", "latitude": 41.952028, "longitude": -87.82792, "name": "Irving Woods", "state": "IL", "county": "Cook County", "is_village": 0}, {"id": 403282, "city": "Chicago", "latitude": 41.941216, "longitude": -87.83136, "name": "Belmont Terrace", "state": "IL", "county": "Cook County", "is_village": 0}, {"id": 403283, "city": "Chicago", "latitude": 41.943447, "longitude": -87.816538, "name": "Belmont Heights", "state": "IL", "county": "Cook County", "is_village": 0}, {"id": 403284, "city": "Chicago", "latitude": 41.941744, "longitude": -87.796409, "name": "Schorsch Village", "state": "IL", "county": "Cook County", "is_village": 0}, {"id": 403285, "city": "Chicago", "latitude": 41.980973, "longitude": -87.773154, "name": "Gladstone Park", "state": "IL", "county": "Cook County", "is_village": 0}, {"id": 403286, "city": "Chicago", "latitude": 41.96442, "longitude": -87.737612, "name": "Mayfair", "state": "IL", "county": "Cook County", "is_village": 0}, {"id": 403287, "city": "Chicago", "latitude": 41.942452, "longitude": -87.737031, "name": "Kilbourn Park", "state": "IL", "county": "Cook County", "is_village": 0}, {"id": 403288, "city": "Chicago", "latitude": 41.955155, "longitude": -87.737366, "name": "Old Irving Park", "state": "IL", "county": "Cook County", "is_village": 0}, {"id": 403289, "city": "Chicago", "latitude": 41.949058, "longitude": -87.722908, "name": "The Villa", "state": "IL", "county": "Cook County", "is_village": 0}, {"id": 403290, "city": "Chicago", "latitude": 41.964857, "longitude": -87.699268, "name": "Ravenswood Manor", "state": "IL", "county": "Cook County", "is_village": 0}, {"id": 403291, "city": "Chicago", "latitude": 41.953999, "longitude": -87.693379, "name": "Horner Park", "state": "IL", "county": "Cook County", "is_village": 0}, {"id": 403292, "city": "Chicago", "latitude": 41.943195, "longitude": -87.678442, "name": "Roscoe Village", "state": "IL", "county": "Cook County", "is_village": 0}, {"id": 403293, "city": "Chicago", "latitude": 41.957876, "longitude": -87.671466, "name": "South East Ravenswood", "state": "IL", "county": "Cook County", "is_village": 0}, {"id": 403294, "city": "Chicago", "latitude": 41.947809, "longitude": -87.65553, "name": "Wrigleyville", "state": "IL", "county": "Cook County", "is_village": 0}, {"id": 403295, "city": "Chicago", "latitude": 41.943076, "longitude": -87.640085, "name": "Lake View East", "state": "IL", "county": "Cook County", "is_village": 0}, {"id": 403296, "city": "Chicago", "latitude": 41.93047, "longitude": -87.676095, "name": "Lathrop Homes", "state": "IL", "county": "Cook County", "is_village": 0}, {"id": 403297, "city": "Chicago", "latitude": 41.894402, "longitude": -87.650417, "name": "River West", "state": "IL", "county": "Cook County", "is_village": 0}, {"id": 403298, "city": "Chicago", "latitude": 41.903617, "longitude": -87.654007, "name": "Goose Island", "state": "IL", "county": "Cook County", "is_village": 0}, {"id": 403299, "city": "Chicago", "latitude": 41.890333, "longitude": -87.611529, "name": "Streeterville", "state": "IL", "county": "Cook County", "is_village": 0}, {"id": 403300, "city": "Chicago", "latitude": 41.891747, "longitude": -87.63743, "name": "River North", "state": "IL", "county": "Cook County", "is_village": 0}, {"id": 403301, "city": "Chicago", "latitude": 41.907443, "longitude": -87.637414, "name": "Old Town", "state": "IL", "county": "Cook County", "is_village": 0}, {"id": 403302, "city": "Chicago", "latitude": 41.900126, "longitude": -87.640933, "name": "Cabrini Green", "state": "IL", "county": "Cook County", "is_village": 0}, {"id": 403303, "city": "Chicago", "latitude": 41.90595, "longitude": -87.629635, "name": "Gold Coast", "state": "IL", "county": "Cook County", "is_village": 0}, {"id": 403304, "city": "Chicago", "latitude": 41.914799, "longitude": -87.632214, "name": "Old Town Triangle", "state": "IL", "county": "Cook County", "is_village": 0}, {"id": 403305, "city": "Chicago", "latitude": 41.914481, "longitude": -87.656148, "name": "Ranch Triangle", "state": "IL", "county": "Cook County", "is_village": 0}, {"id": 403306, "city": "Chicago", "latitude": 41.921239, "longitude": -87.661377, "name": "Sheffield Neighbors", "state": "IL", "county": "Cook County", "is_village": 0}, {"id": 403307, "city": "Chicago", "latitude": 41.928963, "longitude": -87.65616, "name": "Wrightwood Neighbors", "state": "IL", "county": "Cook County", "is_village": 0}, {"id": 403308, "city": "Chicago", "latitude": 41.92919, "longitude": -87.639256, "name": "Park West", "state": "IL", "county": "Cook County", "is_village": 0}, {"id": 403309, "city": "Chicago", "latitude": 41.928816, "longitude": -87.66584, "name": "West De Paul", "state": "IL", "county": "Cook County", "is_village": 0}, {"id": 403310, "city": "Chicago", "latitude": 41.90336, "longitude": -87.663025, "name": "Noble Square", "state": "IL", "county": "Cook County", "is_village": 0}, {"id": 403311, "city": "Chicago", "latitude": 41.899625, "longitude": -87.67231, "name": "East Ukrainian Village", "state": "IL", "county": "Cook County", "is_village": 0}, {"id": 403312, "city": "Chicago", "latitude": 41.899466, "longitude": -87.68205, "name": "Ukrainian Village", "state": "IL", "county": "Cook County", "is_village": 0}, {"id": 403313, "city": "Chicago", "latitude": 41.889185, "longitude": -87.645521, "name": "Fulton River District", "state": "IL", "county": "Cook County", "is_village": 0}, {"id": 403314, "city": "Chicago", "latitude": 41.92109, "longitude": -87.697875, "name": "Palmer Square", "state": "IL", "county": "Cook County", "is_village": 0}, {"id": 403315, "city": "Chicago", "latitude": 41.931487, "longitude": -87.744178, "name": "Kelvin Park", "state": "IL", "county": "Cook County", "is_village": 0}, {"id": 403316, "city": "Chicago", "latitude": 41.943688, "longitude": -87.731297, "name": "South Old Irving Park", "state": "IL", "county": "Cook County", "is_village": 0}, {"id": 403317, "city": "Chicago", "latitude": 41.931613, "longitude": -87.734376, "name": "Belmont Gardens", "state": "IL", "county": "Cook County", "is_village": 0}, {"id": 403318, "city": "Chicago", "latitude": 41.902354, "longitude": -87.735967, "name": "West Humboldt Park", "state": "IL", "county": "Cook County", "is_village": 0}, {"id": 403319, "city": "Chicago", "latitude": 41.87739, "longitude": -87.71082, "name": "Fifth City", "state": "IL", "county": "Cook County", "is_village": 0}, {"id": 403320, "city": "Chicago", "latitude": 41.878769, "longitude": -87.646994, "name": "Greektown", "state": "IL", "county": "Cook County", "is_village": 0}, {"id": 403321, "city": "Chicago", "latitude": 41.871257, "longitude": -87.67949, "name": "Tri-Taylor", "state": "IL", "county": "Cook County", "is_village": 0}, {"id": 403322, "city": "Chicago", "latitude": 41.880646, "longitude": -87.641517, "name": "West Loop Gate", "state": "IL", "county": "Cook County", "is_village": 0}, {"id": 403323, "city": "Chicago", "latitude": 41.909213, "longitude": -87.760686, "name": "North Austin", "state": "IL", "county": "Cook County", "is_village": 0}, {"id": 403324, "city": "Chicago", "latitude": 41.919747, "longitude": -87.760868, "name": "Hanson Park", "state": "IL", "county": "Cook County", "is_village": 0}, {"id": 403325, "city": "Chicago", "latitude": 41.916147, "longitude": -87.790697, "name": "Galewood", "state": "IL", "county": "Cook County", "is_village": 0}, {"id": 403326, "city": "Chicago", "latitude": 41.868277, "longitude": -87.769192, "name": "The Island", "state": "IL", "county": "Cook County", "is_village": 0}, {"id": 403327, "city": "Chicago", "latitude": 41.870195, "longitude": -87.712633, "name": "Homan Square", "state": "IL", "county": "Cook County", "is_village": 0}, {"id": 403328, "city": "Chicago", "latitude": 41.866719, "longitude": -87.676121, "name": "Illinois Medical District", "state": "IL", "county": "Cook County", "is_village": 0}, {"id": 403329, "city": "Chicago", "latitude": 41.84846, "longitude": -87.684306, "name": "Heart of Italy", "state": "IL", "county": "Cook County", "is_village": 0}, {"id": 403330, "city": "Chicago", "latitude": 41.848941, "longitude": -87.675813, "name": "Heart of Chicago", "state": "IL", "county": "Cook County", "is_village": 0}, {"id": 403331, "city": "Chicago", "latitude": 41.856319, "longitude": -87.642615, "name": "East Pilsen", "state": "IL", "county": "Cook County", "is_village": 0}, {"id": 403332, "city": "Chicago", "latitude": 41.785527, "longitude": -87.749876, "name": "Chicago Midway Airport", "state": "IL", "county": "Cook County", "is_village": 0}, {"id": 403333, "city": "Chicago", "latitude": 41.802304, "longitude": -87.747891, "name": "Vittum Park", "state": "IL", "county": "Cook County", "is_village": 0}, {"id": 403334, "city": "Chicago", "latitude": 41.813214, "longitude": -87.74813, "name": "LeClaire Courts", "state": "IL", "county": "Cook County", "is_village": 0}, {"id": 403335, "city": "Chicago", "latitude": 41.813959, "longitude": -87.74084, "name": "Sleepy Hollow", "state": "IL", "county": "Cook County", "is_village": 0}, {"id": 403336, "city": "Chicago", "latitude": 41.776432, "longitude": -87.751809, "name": "Chrysler Village", "state": "IL", "county": "Cook County", "is_village": 0}, {"id": 403337, "city": "Chicago", "latitude": 41.77649, "longitude": -87.744547, "name": "Clearing (E)", "state": "IL", "county": "Cook County", "is_village": 0}, {"id": 403338, "city": "Chicago", "latitude": 41.760522, "longitude": -87.732056, "name": "Ford City", "state": "IL", "county": "Cook County", "is_village": 0}, {"id": 403339, "city": "Chicago", "latitude": 41.767245, "longitude": -87.688146, "name": "Lithuanian Plaza", "state": "IL", "county": "Cook County", "is_village": 0}, {"id": 403340, "city": "Chicago", "latitude": 41.814352, "longitude": -87.640985, "name": "Canaryville", "state": "IL", "county": "Cook County", "is_village": 0}, {"id": 403342, "city": "Chicago", "latitude": 41.886575, "longitude": -87.61705, "name": "Near East Side", "state": "IL", "county": "Cook County", "is_village": 0}, {"id": 403343, "city": "Chicago", "latitude": 41.873965, "longitude": -87.629153, "name": "Printers Row", "state": "IL", "county": "Cook County", "is_village": 0}, {"id": 403344, "city": "Chicago", "latitude": 41.866472, "longitude": -87.628962, "name": "Dearborn Park", "state": "IL", "county": "Cook County", "is_village": 0}, {"id": 403345, "city": "Chicago", "latitude": 41.842015, "longitude": -87.620545, "name": "South Commons", "state": "IL", "county": "Cook County", "is_village": 0}, {"id": 403346, "city": "Chicago", "latitude": 41.834712, "longitude": -87.62037, "name": "The Gap", "state": "IL", "county": "Cook County", "is_village": 0}, {"id": 403347, "city": "Chicago", "latitude": 41.827314, "longitude": -87.628635, "name": "Stateway Gardens", "state": "IL", "county": "Cook County", "is_village": 0}, {"id": 403348, "city": "Chicago", "latitude": 41.83295, "longitude": -87.607245, "name": "Groveland Park", "state": "IL", "county": "Cook County", "is_village": 0}, {"id": 403349, "city": "Chicago", "latitude": 41.827547, "longitude": -87.612129, "name": "Ida B. Wells - Darrow Homes", "state": "IL", "county": "Cook County", "is_village": 0}, {"id": 403350, "city": "Chicago", "latitude": 41.809081, "longitude": -87.628807, "name": "The Robert Taylor Homes", "state": "IL", "county": "Cook County", "is_village": 0}, {"id": 403351, "city": "Chicago", "latitude": 41.813223, "longitude": -87.595609, "name": "North Kenwood", "state": "IL", "county": "Cook County", "is_village": 0}, {"id": 403352, "city": "Chicago", "latitude": 41.794051, "longitude": -87.582101, "name": "East Hyde Park", "state": "IL", "county": "Cook County", "is_village": 0}, {"id": 403353, "city": "Chicago", "latitude": 41.779287, "longitude": -87.610654, "name": "West Woodlawn", "state": "IL", "county": "Cook County", "is_village": 0}, {"id": 403354, "city": "Chicago", "latitude": 41.769751, "longitude": -87.578834, "name": "Jackson Park Highlands", "state": "IL", "county": "Cook County", "is_village": 0}, {"id": 403355, "city": "Chicago", "latitude": 41.777471, "longitude": -87.617148, "name": "Parkway Gardens", "state": "IL", "county": "Cook County", "is_village": 0}, {"id": 403356, "city": "Chicago", "latitude": 41.769037, "longitude": -87.618357, "name": "Park Manor", "state": "IL", "county": "Cook County", "is_village": 0}, {"id": 403357, "city": "Chicago", "latitude": 41.743965, "longitude": -87.631154, "name": "West Chatham", "state": "IL", "county": "Cook County", "is_village": 0}, {"id": 403358, "city": "Chicago", "latitude": 41.740426, "longitude": -87.593002, "name": "Marynook", "state": "IL", "county": "Cook County", "is_village": 0}, {"id": 403359, "city": "Chicago", "latitude": 41.744792, "longitude": -87.540484, "name": "The Bush", "state": "IL", "county": "Cook County", "is_village": 0}, {"id": 403360, "city": "Chicago", "latitude": 41.743957, "longitude": -87.601143, "name": "East Chatham", "state": "IL", "county": "Cook County", "is_village": 0}, {"id": 403361, "city": "Chicago", "latitude": 41.72906, "longitude": -87.619439, "name": "West Chesterfield", "state": "IL", "county": "Cook County", "is_village": 0}, {"id": 403362, "city": "Chicago", "latitude": 41.725813, "longitude": -87.629087, "name": "Princeton Park", "state": "IL", "county": "Cook County", "is_village": 0}, {"id": 403363, "city": "Chicago", "latitude": 41.726675, "longitude": -87.575472, "name": "Pill Hill", "state": "IL", "county": "Cook County", "is_village": 0}, {"id": 403364, "city": "Chicago", "latitude": 41.752457, "longitude": -87.636957, "name": "Winneconna Parkway", "state": "IL", "county": "Cook County", "is_village": 0}, {"id": 403365, "city": "Chicago", "latitude": 41.738929, "longitude": -87.716773, "name": "Parkview", "state": "IL", "county": "Cook County", "is_village": 0}, {"id": 403366, "city": "Chicago", "latitude": 41.736956, "longitude": -87.707007, "name": "Marycrest", "state": "IL", "county": "Cook County", "is_village": 0}, {"id": 403367, "city": "Chicago", "latitude": 41.743922, "longitude": -87.731492, "name": "Scottsdale", "state": "IL", "county": "Cook County", "is_village": 0}, {"id": 403368, "city": "Chicago", "latitude": 41.747295, "longitude": -87.680385, "name": "Beverly View", "state": "IL", "county": "Cook County", "is_village": 0}, {"id": 403369, "city": "Chicago", "latitude": 41.686338, "longitude": -87.715212, "name": "Mount Greenwood Heights", "state": "IL", "county": "Cook County", "is_village": 0}, {"id": 403370, "city": "Chicago", "latitude": 41.709658, "longitude": -87.716, "name": "Tally's Corner", "state": "IL", "county": "Cook County", "is_village": 0}, {"id": 403371, "city": "Chicago", "latitude": 41.688117, "longitude": -87.688329, "name": "Kennedy Park", "state": "IL", "county": "Cook County", "is_village": 0}, {"id": 403372, "city": "Chicago", "latitude": 41.680882, "longitude": -87.683525, "name": "Beverly Woods", "state": "IL", "county": "Cook County", "is_village": 0}, {"id": 403373, "city": "Chicago", "latitude": 41.695364, "longitude": -87.688563, "name": "West Morgan Park", "state": "IL", "county": "Cook County", "is_village": 0}, {"id": 403374, "city": "Chicago", "latitude": 41.70635, "longitude": -87.688849, "name": "West Beverly", "state": "IL", "county": "Cook County", "is_village": 0}, {"id": 403375, "city": "Chicago", "latitude": 41.706618, "longitude": -87.662983, "name": "East Beverly", "state": "IL", "county": "Cook County", "is_village": 0}, {"id": 403376, "city": "Chicago", "latitude": 41.714245, "longitude": -87.643133, "name": "Longwood Manor", "state": "IL", "county": "Cook County", "is_village": 0}, {"id": 403377, "city": "Chicago", "latitude": 41.707434, "longitude": -87.633177, "name": "Fernwood", "state": "IL", "county": "Cook County", "is_village": 0}, {"id": 403378, "city": "Chicago", "latitude": 41.72686, "longitude": -87.650466, "name": "Brainerd", "state": "IL", "county": "Cook County", "is_village": 0}, {"id": 403379, "city": "Chicago", "latitude": 41.71097, "longitude": -87.611983, "name": "Rosemoor", "state": "IL", "county": "Cook County", "is_village": 0}, {"id": 403380, "city": "Chicago", "latitude": 41.654658, "longitude": -87.60853, "name": "Golden Gate", "state": "IL", "county": "Cook County", "is_village": 0}, {"id": 403381, "city": "Chicago", "latitude": 41.654662, "longitude": -87.615961, "name": "Eden Green", "state": "IL", "county": "Cook County", "is_village": 0}, {"id": 403382, "city": "Chicago", "latitude": 41.711582, "longitude": -87.60046, "name": "London Towne", "state": "IL", "county": "Cook County", "is_village": 0}, {"id": 403383, "city": "Chicago", "latitude": 41.718482, "longitude": -87.597566, "name": "Cottage Grove Heights", "state": "IL", "county": "Cook County", "is_village": 0}, {"id": 403384, "city": "Chicago", "latitude": 41.701337, "longitude": -87.564526, "name": "Trumbull Park", "state": "IL", "county": "Cook County", "is_village": 0}, {"id": 403385, "city": "Chicago", "latitude": 41.652941, "longitude": -87.530157, "name": "Harbour Point Estates", "state": "IL", "county": "Cook County", "is_village": 0}, {"id": 403386, "city": "Chicago", "latitude": 41.69072, "longitude": -87.590365, "name": "Lake Calumet", "state": "IL", "county": "Cook County", "is_village": 0}, {"id": 403387, "city": "Chicago", "latitude": 41.672231, "longitude": -87.532414, "name": "Wolf Lake", "state": "IL", "county": "Cook County", "is_village": 0}, {"id": 403388, "city": "Chicago", "latitude": 41.695759, "longitude": -87.544453, "name": "Calumet River", "state": "IL", "county": "Cook County", "is_village": 0}, {"id": 403389, "city": "Chicago", "latitude": 41.648898, "longitude": -87.532163, "name": "Powder Horn Lake", "state": "IL", "county": "Cook County", "is_village": 0}, {"id": 403390, "city": "Chicago", "latitude": 41.652403, "longitude": -87.576424, "name": "Little Calumet River", "state": "IL", "county": "Cook County", "is_village": 0}, {"id": 403560, "city": "Chicago", "latitude": 41.860963, "longitude": -87.694489, "name": "Douglas Park", "state": "IL", "county": "Cook County", "is_village": 0}]}, "message": "City neighborhoods list fetched successfully"}